[
	{
		"name": "Westward American Single Malt",
		"friendly_name": "Westward",
		"age": "",
		"distillery": "House Spirits",
		"country": "USA",
		"region_in_country": "Oregon",
		"latitude": 45.5189855,
		"longitude": -122.6675335,
		"aroma": 7,
		"taste": 8,
		"finish": 7,
		"overall": 7,
		"colour": "dark amber",
		"type": "single malt",
		"light_rich": 1,
		"delicate_smoky": 9,
		"url": "http://whiskeynerds.com/westward-american-single-malt/"
	},
	{
		"name": "The Chita - Suntory Whisky",
		"friendly_name": "Chita",
		"age": "",
		"distillery": "Chita",
		"country": "Japan",
		"region_in_country": "",
		"latitude": 23.2178598,
		"longitude": 83.7032353,
		"aroma": 7,
		"taste": 7,
		"finish": 6,
		"overall": 7,
		"colour": "light gold",
		"type": "single grain",
		"light_rich": 2,
		"delicate_smoky": 6,
		"url": "http://whiskeynerds.com/the-chita-suntory-whisky/"
	},
	{
		"name": "Applewood Baby Malt",
		"friendly_name": "Applewood",
		"age": "",
		"distillery": "Applewood",
		"country": "Australia",
		"region_in_country": "South Australia",
		"latitude": -34.8284899,
		"longitude": 138.8836056,
		"aroma": 5,
		"taste": 6,
		"finish": 5,
		"overall": 5,
		"colour": "light amber",
		"type": "malt",
		"light_rich": 3,
		"delicate_smoky": 4,
		"url":
			"http://whiskeynerds.com/aplewood-colonial-malt-and-baby-malt-double-feature/"
	},
	{
		"name": "Colonial Malt (Moonshine)",
		"friendly_name": "Colonial",
		"age": "",
		"distillery": "Applewood",
		"country": "Australia",
		"region_in_country": "South Australia",
		"latitude": -33.8284899,
		"longitude": 139.8836056,
		"aroma": 3,
		"taste": 5,
		"finish": 5,
		"overall": 4,
		"colour": "clear",
		"type": "malt",
		"light_rich": 4,
		"delicate_smoky": 5,
		"url":
			"http://whiskeynerds.com/aplewood-colonial-malt-and-baby-malt-double-feature/"
	},
	{
		"name": "Dalwhinnie 15 Year Old",
		"friendly_name": "Dalwhinnie",
		"age": 15,
		"distillery": "Dalwhinnie",
		"country": "Scotland",
		"region_in_country": "Highland",
		"latitude": 56.939995,
		"longitude": -4.2413287,
		"aroma": 8,
		"taste": 8,
		"finish": 8,
		"overall": 8,
		"colour": "light gold",
		"type": "single malt",
		"light_rich": 1,
		"delicate_smoky": 2,
		"url": "http://whiskeynerds.com/dalwhinnie-15-year-old/"
	},
	{
		"name": "Kilchoman Sanaig",
		"friendly_name": "Kilchoman",
		"age": "",
		"distillery": "Kilchoman",
		"country": "Scotland",
		"region_in_country": "Islay",
		"latitude": 55.78688,
		"longitude": -6.4327017,
		"aroma": 7,
		"taste": 8,
		"finish": 7,
		"overall": 7,
		"colour": "dark gold",
		"type": "single malt",
		"light_rich": 6,
		"delicate_smoky": 7,
		"url": "http://whiskeynerds.com/kilchoman-sanaig/"
	},
	{
		"name": "Old Pulteney 12 Year Old",
		"friendly_name": "Old Pulteney",
		"age": 12,
		"distillery": "Pulteney",
		"country": "Scotland",
		"region_in_country": "Highland",
		"latitude": 58.4350081,
		"longitude": -3.0869384,
		"aroma": 7,
		"taste": 7,
		"finish": 7,
		"overall": 7,
		"colour": "light gold",
		"type": "single malt",
		"light_rich": 7,
		"delicate_smoky": 4,
		"url": "http://whiskeynerds.com/old-pulteney-12-years/"
	},
	{
		"name": "Jameson 18 Limited Reserve",
		"friendly_name": "Jameson",
		"age": 18,
		"distillery": "Jameson",
		"country": "Ireland",
		"region_in_country": "Dublin",
		"latitude": 53.3483761,
		"longitude": -6.2795431,
		"aroma": 7,
		"taste": 7,
		"finish": 7,
		"overall": 7,
		"colour": "light gold",
		"type": "blend",
		"light_rich": 8,
		"delicate_smoky": 7,
		"url": "http://whiskeynerds.com/jameson-18-limited-reserve/"
	},
	{
		"name": "Hellyers Road Distillery - Pinot Noir Finish",
		"friendly_name": "Hellyers",
		"age": "",
		"distillery": "Hellyers Road",
		"country": "Australia",
		"region_in_country": "Tasmania",
		"latitude": -41.0888208,
		"longitude": 145.9070769,
		"aroma": 7,
		"taste": 5,
		"finish": 6,
		"overall": 6,
		"colour": "dark gold",
		"type": "single malt",
		"light_rich": 9,
		"delicate_smoky": 6,
		"url": "http://whiskeynerds.com/hellyers-road-distillery-pinot-noir-finish/"
	},
	{
		"name": "Glen Parker Single Malt",
		"friendly_name": "Glen Parker",
		"age": "",
		"distillery": "Glen Parker",
		"country": "Scotland",
		"region_in_country": "Speyside",
		"latitude": 57.3701808,
		"longitude": -3.8450754,
		"aroma": 6,
		"taste": 6,
		"finish": 6,
		"overall": 6,
		"colour": "light gold",
		"type": "single malt",
		"light_rich": 3,
		"delicate_smoky": 4,
		"url": "http://whiskeynerds.com/glen-parker-single-malt/"
	},
	{
		"name": "Highland Black",
		"friendly_name": "Highland Black",
		"age": "",
		"distillery": "Aldi",
		"country": "Scotland",
		"region_in_country": "Highland",
		"latitude": 51.4622246,
		"longitude": 7.0675806,
		"aroma": 4,
		"taste": 6,
		"finish": 5,
		"overall": 5,
		"colour": "light amber",
		"type": "blend",
		"light_rich": 5,
		"delicate_smoky": 3,
		"url": "http://whiskeynerds.com/highland-black/"
	},
	{
		"name": "Glenmorangie Tùsail Private Edition (2015)",
		"friendly_name": "Glenmorangie",
		"age": "",
		"distillery": "Glenmorangie",
		"country": "Scotland",
		"region_in_country": "Highland",
		"latitude": 57.8258519,
		"longitude": -4.0801371,
		"aroma": 7,
		"taste": 7,
		"finish": 7,
		"overall": 7,
		"colour": "light gold",
		"type": "single malt",
		"light_rich": 7,
		"delicate_smoky": 6,
		"url": "http://whiskeynerds.com/glenmorangie-tusail-private-edition-2015/"
	},
	{
		"name": "Michel Couvreur Overaged Malt Whisky",
		"friendly_name": "Michel Couvreur",
		"age": "",
		"distillery": "Michel Couvreur",
		"country": "France",
		"region_in_country": "Burgundy",
		"latitude": 50.7557215,
		"longitude": 3.1001377,
		"aroma": 7,
		"taste": 7,
		"finish": 8,
		"overall": 7,
		"colour": "dark amber",
		"type": "blend",
		"light_rich": 8,
		"delicate_smoky": 7,
		"url": "http://whiskeynerds.com/michel-couvreur-overaged-malt-whisky/"
	},
	{
		"name": "Lagavulin 16 Year Old",
		"friendly_name": "Lagavulin",
		"age": 16,
		"distillery": "Lagavulin",
		"country": "Scotland",
		"region_in_country": "Islay",
		"latitude": 55.635515,
		"longitude": -6.1283937,
		"aroma": 8,
		"taste": 7,
		"finish": 8,
		"overall": 8,
		"colour": "dark gold",
		"type": "single malt",
		"light_rich": 4,
		"delicate_smoky": 5,
		"url": "http://whiskeynerds.com/lagavulin-16-year-old/"
	},
	{
		"name": "Hybrid Whisk(e)y",
		"friendly_name": "Hybrid",
		"age": "",
		"distillery": "Twenty Third Street",
		"country": "Australia",
		"region_in_country": "South Australia",
		"latitude": -34.1844544,
		"longitude": 140.7279844,
		"aroma": 8,
		"taste": 8,
		"finish": 6,
		"overall": 7,
		"colour": "light gold",
		"type": "blend",
		"light_rich": 2,
		"delicate_smoky": 3,
		"url": "http://whiskeynerds.com/hybrid-whisk-e-y/"
	},
	{
		"name": "Hakushu - 12 Year Old",
		"friendly_name": "Hakushu",
		"age": 12,
		"distillery": "Hakushu",
		"country": "Japan",
		"region_in_country": "Hokuto",
		"latitude": 35.8264763,
		"longitude": 138.3003434,
		"aroma": 8,
		"taste": 8,
		"finish": 8,
		"overall": 8,
		"colour": "light gold",
		"type": "single malt",
		"light_rich": 7,
		"delicate_smoky": 3,
		"url": "http://whiskeynerds.com/hakushu-12-years/"
	},
	{
		"name": "Jura Elixir - 12 Year Old",
		"friendly_name": "Jura Elixir",
		"age": 12,
		"distillery": "Jura",
		"country": "Scotland",
		"region_in_country": "Isle of Jura",
		"latitude": 55.8329076,
		"longitude": -5.9530208,
		"aroma": 5,
		"taste": 6,
		"finish": 6,
		"overall": 6,
		"colour": "dark amber",
		"type": "single malt",
		"light_rich": 4,
		"delicate_smoky": 7,
		"url": "http://whiskeynerds.com/jura-elixir-12-year-old/"
	},
	{
		"name": "Auchentoshan Springwood",
		"friendly_name": "Auchentoshan",
		"age": "",
		"distillery": "Auchentoshan",
		"country": "Scotland",
		"region_in_country": "Lowland",
		"latitude": 55.9229427,
		"longitude": -4.4402652,
		"aroma": 7,
		"taste": 7,
		"finish": 6,
		"overall": 7,
		"colour": "dark gold",
		"type": "single malt",
		"light_rich": 3,
		"delicate_smoky": 3,
		"url": "http://whiskeynerds.com/auchentoshan-springwood/"
	},
	{
		"name": "Amrut Cask Strength",
		"friendly_name": "Amrut",
		"age": "",
		"distillery": "Amrut",
		"country": "India",
		"region_in_country": "Bangalore",
		"latitude": 12.889104,
		"longitude": 77.4499433,
		"aroma": 7,
		"taste": 7,
		"finish": 7,
		"overall": 7,
		"colour": "dark amber",
		"type": "single malt",
		"light_rich": 7,
		"delicate_smoky": 5,
		"url": "http://whiskeynerds.com/amrut-cask-strength/"
	},
	{
		"name": "Bushmills 1608 - 400th Anniversary",
		"friendly_name": "Bushmills",
		"age": "",
		"distillery": "Bushmills",
		"country": "Ireland",
		"region_in_country": "Northern",
		"latitude": 55.2028567,
		"longitude": -6.5194154,
		"aroma": 7,
		"taste": 6,
		"finish": 6,
		"overall": 6,
		"colour": "dark gold",
		"type": "blend",
		"light_rich": 9,
		"delicate_smoky": 5,
		"url": "http://whiskeynerds.com/bushmills-1608-400th-anniversary/"
	},
	{
		"name": "The Arran Malt - 14 Year Olds",
		"friendly_name": "Arran Malt",
		"age": 14,
		"distillery": "Arran",
		"country": "Scotland",
		"region_in_country": "Arran",
		"latitude": 55.6977475,
		"longitude": -5.277816,
		"aroma": 6,
		"taste": 7,
		"finish": 8,
		"overall": 7,
		"colour": "light gold",
		"type": "single malt",
		"light_rich": 8,
		"delicate_smoky": 7,
		"url": "http://whiskeynerds.com/the-arran-malt-14-years/"
	},
	{
		"name": "Benromach Wood Finish 1898 (Bottled in 2014)",
		"friendly_name": "Benromach",
		"age": "",
		"distillery": "Benromach",
		"country": "Scotland",
		"region_in_country": "Speyside",
		"latitude": 57.6135678,
		"longitude": -3.6222059,
		"aroma": 7,
		"taste": 7,
		"finish": 7,
		"overall": 7,
		"colour": "dark gold",
		"type": "single malt",
		"light_rich": 9,
		"delicate_smoky": 8,
		"url": "http://whiskeynerds.com/benromach-wood-finish-1898-bottled-in-2014/"
	},
	{
		"name": "Craoi Na Móna - 10 Year Old",
		"friendly_name": "Craoi Na",
		"age": 10,
		"distillery": "Berry Bros. & Rudd",
		"country": "Ireland",
		"region_in_country": "",
		"latitude": 53.3975054,
		"longitude": -10.1987964,
		"aroma": 6,
		"taste": 8,
		"finish": 7,
		"overall": 7,
		"colour": "clear",
		"type": "single malt",
		"light_rich": 2,
		"delicate_smoky": 8,
		"url": "http://whiskeynerds.com/craoi-na-mona-10-year-old/"
	},
	{
		"name": "Glenmorangie Bacalta (2017 Private Edition)",
		"friendly_name": "Glenmorangie",
		"age": "",
		"distillery": "Glenmorangie",
		"country": "Scotland",
		"region_in_country": "Highland",
		"latitude": 57.8258519,
		"longitude": -4.0801371,
		"aroma": 8,
		"taste": 7,
		"finish": 7,
		"overall": 7,
		"colour": "light gold",
		"type": "single malt",
		"light_rich": 2,
		"delicate_smoky": 2,
		"url": "http://whiskeynerds.com/glenmorangie-bacalta-2017-private-edition/"
	},
	{
		"name": "Nant Bourbon Cask",
		"friendly_name": "Nant",
		"age": "",
		"distillery": "Nant",
		"country": "Australia",
		"region_in_country": "Tasmania",
		"latitude": -42.355913,
		"longitude": 147.0142233,
		"aroma": 7,
		"taste": 7,
		"finish": 7,
		"overall": 7,
		"colour": "light gold",
		"type": "single malt",
		"light_rich": 1,
		"delicate_smoky": 1,
		"url": "http://whiskeynerds.com/nant-bourbon-cask/"
	},
	{
		"name": "Talisker Dark Storm",
		"friendly_name": "Talisker",
		"age": "",
		"distillery": "Talisker",
		"country": "Scotland",
		"region_in_country": "Skye",
		"latitude": 57.3030009,
		"longitude": -6.3586587,
		"aroma": 7,
		"taste": 8,
		"finish": 8,
		"overall": 8,
		"colour": "dark amber",
		"type": "single malt",
		"light_rich": 5,
		"delicate_smoky": 9,
		"url": "http://whiskeynerds.com/talisker-dark-storm/"
	},
	{
		"name": "Laphroaig Select Cask",
		"friendly_name": "Laphroaig",
		"age": "",
		"distillery": "Laphroaig",
		"country": "Scotland",
		"region_in_country": "Islay",
		"latitude": 55.6320192,
		"longitude": -6.1609968,
		"aroma": 7,
		"taste": 7,
		"finish": 8,
		"overall": 7,
		"colour": "light gold",
		"type": "single malt",
		"light_rich": 8,
		"delicate_smoky": 9,
		"url": "http://whiskeynerds.com/laphroaig-select-cask/"
	},
	{
		"name": "Jameson The Blender’s Dog",
		"friendly_name": "Jameson",
		"age": "",
		"distillery": "Jameson",
		"country": "Ireland",
		"region_in_country": "Dublin",
		"latitude": 53.3483761,
		"longitude": -6.2795431,
		"aroma": 7,
		"taste": 8,
		"finish": 8,
		"overall": 7,
		"colour": "dark gold",
		"type": "blend",
		"light_rich": 5,
		"delicate_smoky": 3,
		"url": "http://whiskeynerds.com/jameson-the-blenders-dog/"
	},
	{
		"name": "Hazelburn 10 Year Old",
		"friendly_name": "Hazelburn",
		"age": 10,
		"distillery": "Hazelburn",
		"country": "Scotland",
		"region_in_country": "Campbelltown",
		"latitude": 55.4281824,
		"longitude": -5.6120733,
		"aroma": 7,
		"taste": 7,
		"finish": 6,
		"overall": 7,
		"colour": "light gold",
		"type": "single malt",
		"light_rich": 8,
		"delicate_smoky": 2,
		"url": "http://whiskeynerds.com/hazelburn-10-year-old/"
	},
	{
		"name": "Dalmore Cigar Malt Reserve",
		"friendly_name": "Dalmore",
		"age": "",
		"distillery": "Dalmore",
		"country": "Scotland",
		"region_in_country": "Highland",
		"latitude": 57.6892397,
		"longitude": -4.2481147,
		"aroma": 8,
		"taste": 8,
		"finish": 8,
		"overall": 8,
		"colour": "dark amber",
		"type": "single malt",
		"light_rich": 7,
		"delicate_smoky": 7,
		"url": "http://whiskeynerds.com/dalmore-cigar-malt-reserve/"
	},
	{
		"name": "Talisker 57° North",
		"friendly_name": "Talisker",
		"age": "",
		"distillery": "Talisker",
		"country": "Scotland",
		"region_in_country": "Skye",
		"latitude": 57.3030009,
		"longitude": -6.3586587,
		"aroma": 7,
		"taste": 5,
		"finish": 4,
		"overall": 5,
		"colour": "clear",
		"type": "single malt",
		"light_rich": 9,
		"delicate_smoky": 6,
		"url": "http://whiskeynerds.com/talisker-57deg-north/"
	},
	{
		"name": "Kilkerran - 12 Year Olds",
		"friendly_name": "Kilkerran",
		"age": 12,
		"distillery": "Glengyle",
		"country": "Scotland",
		"region_in_country": "Campbelltown",
		"latitude": 55.4281824,
		"longitude": -5.6120733,
		"aroma": 7,
		"taste": 7,
		"finish": 6,
		"overall": 7,
		"colour": "light gold",
		"type": "single malt",
		"light_rich": 7,
		"delicate_smoky": 2,
		"url": "http://whiskeynerds.com/kilkerran-12-years/"
	},
	{
		"name": "Glenfiddich IPA - Experiment 01",
		"friendly_name": "Glenfiddich",
		"age": "",
		"distillery": "Glenfiddich",
		"country": "Scotland",
		"region_in_country": "Highland",
		"latitude": 57.4528529,
		"longitude": -3.1325687,
		"aroma": 9,
		"taste": 8,
		"finish": 8,
		"overall": 8,
		"colour": "light gold",
		"type": "single malt",
		"light_rich": 9,
		"delicate_smoky": 7,
		"url": "http://whiskeynerds.com/glenfiddich-ipa-experiment-01-2/"
	},
	{
		"name": "Laphroaig 18 Year Olds",
		"friendly_name": "Laphroaig",
		"age": 18,
		"distillery": "Laphroaig",
		"country": "Scotland",
		"region_in_country": "Islay",
		"latitude": 55.6320192,
		"longitude": -6.1609968,
		"aroma": 9,
		"taste": 8,
		"finish": 8,
		"overall": 8,
		"colour": "light gold",
		"type": "single malt",
		"light_rich": 5,
		"delicate_smoky": 7,
		"url": "http://whiskeynerds.com/laphroaig-18-year/"
	},
	{
		"name": "Crown Royal Northern Harvest Rye",
		"friendly_name": "Crown Royal",
		"age": "",
		"distillery": "Crown Royal",
		"country": "Canada",
		"region_in_country": "Northern Region",
		"latitude": 50.8553894,
		"longitude": -130.2080744,
		"aroma": 6,
		"taste": 7,
		"finish": 5,
		"overall": 6,
		"colour": "dark gold",
		"type": "blend",
		"light_rich": 3,
		"delicate_smoky": 5,
		"url": "http://whiskeynerds.com/crown-royal-northern-harvest-rye/"
	},
	{
		"name": "Glen Garioch 12 Year Olds",
		"friendly_name": "Glen Garioch",
		"age": 12,
		"distillery": "Glen Garioch",
		"country": "Scotland",
		"region_in_country": "High",
		"latitude": 57.3382011,
		"longitude": -2.3216773,
		"aroma": 6,
		"taste": 8,
		"finish": 6,
		"overall": 7,
		"colour": "dark gold",
		"type": "single malt",
		"light_rich": 9,
		"delicate_smoky": 1,
		"url": "http://whiskeynerds.com/glen-garioch-12-years/"
	},
	{
		"name": "Nikka Whiskey From The Barrel",
		"friendly_name": "Nikka",
		"age": "",
		"distillery": "Nikka",
		"country": "Japan",
		"region_in_country": "",
		"latitude": 31.7145299,
		"longitude": 120.2676016,
		"aroma": 7,
		"taste": 7,
		"finish": 5,
		"overall": 6,
		"colour": "light amber",
		"type": "single malt",
		"light_rich": 5,
		"delicate_smoky": 7,
		"url": "http://whiskeynerds.com/nikka-whiskey-from-the-barrel/"
	},
	{
		"name": "Laphroaig Triple Wood",
		"friendly_name": "Laphroaig",
		"age": "",
		"distillery": "Laphroaig",
		"country": "Scotland",
		"region_in_country": "Islay",
		"latitude": 55.6320192,
		"longitude": -6.1609968,
		"aroma": 8,
		"taste": 9,
		"finish": 8,
		"overall": 8,
		"colour": "light gold",
		"type": "single malt",
		"light_rich": 8,
		"delicate_smoky": 9,
		"url": "http://whiskeynerds.com/laphroaig-triple-wood/"
	},
	{
		"name": "Jura Superstition",
		"friendly_name": "Jura Superstition",
		"age": "",
		"distillery": "Jura",
		"country": "Scotland",
		"region_in_country": "Isle of Jura",
		"latitude": 55.8329076,
		"longitude": -5.9530208,
		"aroma": 7,
		"taste": 7,
		"finish": 7,
		"overall": 7,
		"colour": "dark amber",
		"type": "single malt",
		"light_rich": 5,
		"delicate_smoky": 8,
		"url": "http://whiskeynerds.com/jura-superstition/"
	},
	{
		"name": "Glenmorangie - The Tayne",
		"friendly_name": "Glenmorangie",
		"age": "",
		"distillery": "Glenmorangie",
		"country": "Scotland",
		"region_in_country": "Highland",
		"latitude": 57.8258519,
		"longitude": -4.0801371,
		"aroma": 6,
		"taste": 6,
		"finish": 6,
		"overall": 6,
		"colour": "light gold",
		"type": "single malt",
		"light_rich": 7,
		"delicate_smoky": 3,
		"url": "http://whiskeynerds.com/glenmorangie-the-tayne-2/"
	},
	{
		"name": "Glenfiddich 15 Year Old - Unique Solera Reserve",
		"friendly_name": "Glenfiddich",
		"age": 15,
		"distillery": "Glenfiddich",
		"country": "Scotland",
		"region_in_country": "Highland",
		"latitude": 57.4528529,
		"longitude": -3.1325687,
		"aroma": 7,
		"taste": 8,
		"finish": 7,
		"overall": 7,
		"colour": "dark gold",
		"type": "single malt",
		"light_rich": 5,
		"delicate_smoky": 5,
		"url": "http://whiskeynerds.com/glenfiddich-15-year-unique-solera-reserve/"
	},
	{
		"name": "Glenmorangie Milsean Private Edition",
		"friendly_name": "Glenmorangie",
		"age": "",
		"distillery": "Glenmorangie",
		"country": "Scotland",
		"region_in_country": "Highland",
		"latitude": 57.8258519,
		"longitude": -4.0801371,
		"aroma": 8,
		"taste": 9,
		"finish": 9,
		"overall": 9,
		"colour": "dark gold",
		"type": "single malt",
		"light_rich": 7,
		"delicate_smoky": 2,
		"url": "http://whiskeynerds.com/glenmorangie-milsean-private-edition/"
	},
	{
		"name": "Hibiki Japanese Harmony Master’s Select",
		"friendly_name": "Hibiki",
		"age": "",
		"distillery": "Hibiki",
		"country": "Japan",
		"region_in_country": "",
		"latitude": 31.7145299,
		"longitude": 120.2676016,
		"aroma": 6,
		"taste": 7,
		"finish": 7,
		"overall": 7,
		"colour": "light amber",
		"type": "blend",
		"light_rich": 8,
		"delicate_smoky": 2,
		"url": "http://whiskeynerds.com/hibiki-japanese-harmony-masters-select/"
	},
	{
		"name": "Talisker Storm",
		"friendly_name": "Talisker",
		"age": "",
		"distillery": "Talisker",
		"country": "Scotland",
		"region_in_country": "Skye",
		"latitude": 57.3030009,
		"longitude": -6.3586587,
		"aroma": 8,
		"taste": 9,
		"finish": 7,
		"overall": 8,
		"colour": "light amber",
		"type": "single malt",
		"light_rich": 2,
		"delicate_smoky": 6,
		"url": "http://whiskeynerds.com/talisker-storm/"
	},
	{
		"name": "Aberfeldy 12 Year Old Highland Single Malt",
		"friendly_name": "Aberfeldy",
		"age": 12,
		"distillery": "Dewer’s Aberfeldy",
		"country": "Scotland",
		"region_in_country": "Highland",
		"latitude": 56.6242579,
		"longitude": -3.8530217,
		"aroma": 7,
		"taste": 8,
		"finish": 8,
		"overall": 8,
		"colour": "dark gold",
		"type": "single malt",
		"light_rich": 3,
		"delicate_smoky": 5,
		"url": "http://whiskeynerds.com/aberfeldy-12-year-highland-single-malt/"
	},
	{
		"name": "Glenmorangie “The Quinta Ruban” Port Cask Finish",
		"friendly_name": "Glenmorangie",
		"age": "",
		"distillery": "Glenmorangie",
		"country": "Scotland",
		"region_in_country": "Highland",
		"latitude": 57.8258519,
		"longitude": -4.0801371,
		"aroma": 5,
		"taste": 6,
		"finish": 6,
		"overall": 6,
		"colour": "dark amber",
		"type": "single malt",
		"light_rich": 4,
		"delicate_smoky": 7,
		"url":
			"http://whiskeynerds.com/glenmorangie-the-quinta-ruban-port-cask-finish/"
	},
	{
		"name": "Hellyers Road Single Malt Peated",
		"friendly_name": "Hellyers",
		"age": "",
		"distillery": "Hellyers Road",
		"country": "Australia",
		"region_in_country": "Tasmania",
		"latitude": -41.0888208,
		"longitude": 145.9070769,
		"aroma": 4,
		"taste": 4,
		"finish": 3,
		"overall": 4,
		"colour": "light gold",
		"type": "single malt",
		"light_rich": 5,
		"delicate_smoky": 4,
		"url": "http://whiskeynerds.com/hellyers-road-distillery-peated/"
	},
	{
		"name": "Laphroaig An Cuan Mor",
		"friendly_name": "Laphroaig",
		"age": "",
		"distillery": "Laphroaig",
		"country": "Scotland",
		"region_in_country": "Islay",
		"latitude": 55.6320192,
		"longitude": -6.1609968,
		"aroma": 4,
		"taste": 4,
		"finish": 2,
		"overall": 3,
		"colour": "light gold",
		"type": "single malt",
		"light_rich": 6,
		"delicate_smoky": 9,
		"url": "http://whiskeynerds.com/laphroaig-an-cuan-mor/"
	}
]
